countryCode,type,cityName,cityId,regionName,regionCode,lat,lon,population,elevation,timezone
DK,CITY,Aabenraa,26736,Region of Southern Denmark,83,55.04434,9.41741,16344,16,Europe__Copenhagen
DK,ADM2,Aabenraa Kommune,143553,Region of Southern Denmark,83,54.9898,9.31282,59750,,Europe__Copenhagen
DK,CITY,Aalborg,26621,North Denmark Region,81,57.048,9.9187,122219,5,Europe__Copenhagen
DK,CITY,Aars,26858,North Denmark Region,81,56.80399,9.51441,7771,36,Europe__Copenhagen
DK,CITY,Albertslund,26303,Capital Region of Denmark,84,55.65691,12.36381,30000,12,Europe__Copenhagen
DK,ADM2,Albertslund Kommune,143552,Capital Region of Denmark,84,55.68022,12.34797,27711,,Europe__Copenhagen
DK,ADM2,Allerød Kommune,143554,Capital Region of Denmark,84,55.85856,12.32558,24098,,Europe__Copenhagen
DK,CITY,Allingåbro,26015,Central Denmark Region,82,56.46432,10.31957,1842,3,Europe__Copenhagen
DK,CITY,Arden,26504,North Denmark Region,81,56.76899,9.86184,2516,73,Europe__Copenhagen
DK,CITY,Asnæs,26097,Region Zealand,85,55.81229,11.50129,2441,,Europe__Copenhagen
DK,CITY,Assens,26897,Region of Southern Denmark,83,55.27023,9.90081,6053,14,Europe__Copenhagen
DK,ADM2,Assens Kommune,143548,Region of Southern Denmark,83,55.29958,10.07952,41598,,Europe__Copenhagen
DK,CITY,Assentoft,26285,Central Denmark Region,82,56.4421,10.1517,2432,41,Europe__Copenhagen
DK,CITY,Augustenborg,26684,Region of Southern Denmark,83,54.95201,9.87216,3132,8,Europe__Copenhagen
DK,CITY,Auning,26757,Central Denmark Region,82,56.43079,10.37818,2509,11,Europe__Copenhagen
DK,CITY,Avlum,26552,Central Denmark Region,82,56.26539,8.79256,2875,47,Europe__Copenhagen
DK,CITY,Ballerup,26180,Capital Region of Denmark,84,55.73165,12.36328,40000,34,Europe__Copenhagen
DK,ADM2,Ballerup Kommune,143550,Capital Region of Denmark,84,55.73248,12.35793,47982,,Europe__Copenhagen
DK,CITY,Beder,26403,Central Denmark Region,82,56.06025,10.21179,4214,46,Europe__Copenhagen
DK,CITY,Bellinge,26644,Region of Southern Denmark,83,55.33535,10.32045,4129,,Europe__Copenhagen
DK,CITY,Billund,26551,Region of Southern Denmark,83,55.73349,9.10785,6160,58,Europe__Copenhagen
DK,ADM2,Billund Kommune,143549,Region of Southern Denmark,83,55.73079,8.96844,26265,,Europe__Copenhagen
DK,CITY,Birkerød,26782,Capital Region of Denmark,84,55.84759,12.42791,18901,53,Europe__Copenhagen
DK,CITY,Bjerringbro,26192,Central Denmark Region,82,56.37797,9.66065,7390,14,Europe__Copenhagen
DK,CITY,Bjæverskov,26856,Region Zealand,85,55.45756,12.03651,2618,30,Europe__Copenhagen
DK,CITY,Blovstrød,26687,Capital Region of Denmark,84,55.87038,12.3864,2137,53,Europe__Copenhagen
DK,CITY,Bogense,26084,Region of Southern Denmark,83,55.56691,10.08863,3410,10,Europe__Copenhagen
DK,CITY,Bording Kirkeby,26724,Central Denmark Region,82,56.16871,9.24384,2104,87,Europe__Copenhagen
DK,ADM2,Bornholm Kommune,143547,Capital Region of Denmark,84,55.12386,14.91115,41577,,Europe__Copenhagen
DK,CITY,Borup,26346,Region Zealand,85,55.49472,11.97584,3120,44,Europe__Copenhagen
DK,CITY,Bramming,26646,Region of Southern Denmark,83,55.46946,8.70007,6726,15,Europe__Copenhagen
DK,CITY,Brande,26605,Central Denmark Region,82,55.94316,9.12798,6357,53,Europe__Copenhagen
DK,CITY,Brejning,26280,Region of Southern Denmark,83,55.66594,9.67217,2220,43,Europe__Copenhagen
DK,CITY,Brenderup,26349,Region of Southern Denmark,83,55.48407,9.97908,1366,27,Europe__Copenhagen
DK,CITY,Broager,26379,Region of Southern Denmark,83,54.8894,9.67465,3376,34,Europe__Copenhagen
DK,CITY,Brovst,26296,North Denmark Region,81,57.0975,9.52264,2710,10,Europe__Copenhagen
DK,CITY,Brædstrup,26014,Central Denmark Region,82,55.97153,9.61129,3130,112,Europe__Copenhagen
DK,ADM2,Brøndby Kommune,143544,Capital Region of Denmark,84,55.6429,12.41101,34020,,Europe__Copenhagen
DK,CITY,Brønderslev,26709,North Denmark Region,81,57.27021,9.94102,11671,15,Europe__Copenhagen
DK,ADM2,Brønderslev Kommune,143546,North Denmark Region,81,57.23506,10.10061,35806,,Europe__Copenhagen
DK,CITY,Brørup,26634,Region of Southern Denmark,83,55.48194,9.01756,4233,60,Europe__Copenhagen
DK,CITY,Bullerup,26120,Region of Southern Denmark,83,55.42686,10.47137,2982,,Europe__Copenhagen
DK,CITY,Børkop,26889,Region of Southern Denmark,83,55.64195,9.64958,3561,37,Europe__Copenhagen
DK,CITY,Charlottenlund,26019,Capital Region of Denmark,84,55.75238,12.5745,40000,,Europe__Copenhagen
DK,CITY,Christiansfeld,26087,Region of Southern Denmark,83,55.35817,9.48701,2709,28,Europe__Copenhagen
DK,CITY,Christianshavn,26481,Capital Region of Denmark,84,55.67383,12.59541,10140,7,Europe__Copenhagen
DK,ADM2,Christiansø,143543,Capital Region of Denmark,84,55.31982,15.18783,105,,Europe__Copenhagen
DK,CITY,Copenhagen,25261,Capital Region of Denmark,84,55.67594,12.56553,1153615,14,Europe__Copenhagen
DK,CITY,Dianalund,26110,Region Zealand,85,55.53133,11.4925,3605,28,Europe__Copenhagen
DK,CITY,Dragør,25985,Capital Region of Denmark,84,55.5928,12.67221,11045,3,Europe__Copenhagen
DK,ADM2,Dragør Kommune,143545,Capital Region of Denmark,84,55.58233,12.62756,13738,,Europe__Copenhagen
DK,CITY,Dronninglund,26606,North Denmark Region,81,57.16035,10.29287,3084,23,Europe__Copenhagen
DK,CITY,Dybbøl,26168,Region of Southern Denmark,83,54.91079,9.73601,2303,36,Europe__Copenhagen
DK,CITY,Ebeltoft,25960,Central Denmark Region,82,56.19442,10.6821,7501,28,Europe__Copenhagen
DK,ADM2,Egedal Kommune,143571,Capital Region of Denmark,84,55.75556,12.22778,41756,,Europe__Copenhagen
DK,CITY,Egtved,26612,Region of Southern Denmark,83,55.61613,9.30763,2151,69,Europe__Copenhagen
DK,CITY,Ejby,25935,Region of Southern Denmark,83,55.4301,9.92973,1996,25,Europe__Copenhagen
DK,CITY,Ejby,26526,Region Zealand,85,55.4858,12.08171,2692,30,Europe__Copenhagen
DK,CITY,Esbjerg,26047,Region of Southern Denmark,83,55.47028,8.45187,72205,17,Europe__Copenhagen
DK,ADM2,Esbjerg Kommune,143565,Region of Southern Denmark,83,55.46893,8.46222,115150,,Europe__Copenhagen
DK,CITY,Espergærde,26888,Capital Region of Denmark,84,55.99464,12.54733,11358,,Europe__Copenhagen
DK,CITY,Faaborg,26694,Region of Southern Denmark,83,55.0951,10.24226,7239,,Europe__Copenhagen
DK,ADM2,Faaborg-Midtfyn Kommune,143566,Region of Southern Denmark,83,55.22667,10.40667,51694,,Europe__Copenhagen
DK,ADM2,Fanø Kommune,143538,Region of Southern Denmark,83,55.41667,8.41667,3231,,Europe__Copenhagen
DK,CITY,Farsø,26927,North Denmark Region,81,56.77276,9.33925,3271,32,Europe__Copenhagen
DK,CITY,Farum,26475,Capital Region of Denmark,84,55.80858,12.36066,18376,33,Europe__Copenhagen
DK,ADM2,Favrskov Kommune,143556,Central Denmark Region,82,56.31667,9.94,47055,,Europe__Copenhagen
DK,CITY,Faxe,26151,Region Zealand,85,55.25561,12.11926,3747,33,Europe__Copenhagen
DK,ADM2,Faxe Kommune,143573,Region Zealand,85,55.29444,12.06111,35206,,Europe__Copenhagen
DK,CITY,Faxe Ladeplads,26302,Region Zealand,85,55.21981,12.17013,2837,9,Europe__Copenhagen
DK,CITY,Fensmark,26566,Region Zealand,85,55.27919,11.80382,4203,67,Europe__Copenhagen
DK,CITY,Fjerritslev,26278,North Denmark Region,81,57.08822,9.26622,3441,13,Europe__Copenhagen
DK,CITY,Fløng,26657,Capital Region of Denmark,84,55.66212,12.18698,11108,27,Europe__Copenhagen
DK,CITY,Forlev,26602,Region Zealand,85,55.37445,11.25966,2058,5,Europe__Copenhagen
DK,CITY,Framlev,26241,Central Denmark Region,82,56.15664,10.01318,3067,39,Europe__Copenhagen
DK,CITY,Fredensborg,26299,Capital Region of Denmark,84,55.97558,12.40314,8249,31,Europe__Copenhagen
DK,ADM2,Fredensborg Kommune,143575,Capital Region of Denmark,84,55.95,12.45,39470,,Europe__Copenhagen
DK,CITY,Fredericia,26360,Region of Southern Denmark,83,55.56568,9.75257,36946,16,Europe__Copenhagen
DK,ADM2,Fredericia Kommune,143540,Region of Southern Denmark,83,55.57271,9.69489,50180,,Europe__Copenhagen
DK,CITY,Frederiksberg,26517,Capital Region of Denmark,84,55.67938,12.53463,95029,15,Europe__Copenhagen
DK,CITY,Frederiksberg,26556,Region Zealand,85,55.41618,11.56934,3142,46,Europe__Copenhagen
DK,ADM2,Frederiksberg Kommune,143537,Capital Region of Denmark,84,55.67856,12.52216,99038,,Europe__Copenhagen
DK,CITY,Frederikshavn,26683,North Denmark Region,81,57.44073,10.53661,24103,8,Europe__Copenhagen
DK,ADM2,Frederikshavn Kommune,143542,North Denmark Region,81,57.43347,10.42507,61572,,Europe__Copenhagen
DK,CITY,Frederikssund,26364,Capital Region of Denmark,84,55.83956,12.06896,14564,17,Europe__Copenhagen
DK,ADM2,Frederikssund Kommune,143536,Capital Region of Denmark,84,55.80957,12.04038,44425,,Europe__Copenhagen
DK,CITY,Frederiksværk,26065,Capital Region of Denmark,84,55.97073,12.0225,12176,10,Europe__Copenhagen
DK,CITY,Frejlev,26450,North Denmark Region,81,57.00623,9.81711,2286,,Europe__Copenhagen
DK,CITY,Fuglebjerg,26591,Region Zealand,85,55.30604,11.54766,1985,51,Europe__Copenhagen
DK,ADM2,Furesø Kommune,143558,Capital Region of Denmark,84,55.78333,12.34167,38368,,Europe__Copenhagen
DK,CITY,Galten,26159,Central Denmark Region,82,56.15902,9.91691,4895,45,Europe__Copenhagen
DK,CITY,Ganløse,25962,Capital Region of Denmark,84,55.79124,12.26421,2843,37,Europe__Copenhagen
DK,ADM2,Gentofte Kommune,143539,Capital Region of Denmark,84,55.75,12.55,71987,,Europe__Copenhagen
DK,CITY,Gilleleje,26503,Capital Region of Denmark,84,56.12196,12.31056,5799,14,Europe__Copenhagen
DK,CITY,Gistrup,26236,North Denmark Region,81,56.9943,9.99085,3622,,Europe__Copenhagen
DK,CITY,Give,26191,Region of Southern Denmark,83,55.84523,9.23769,4240,,Europe__Copenhagen
DK,CITY,Gjellerup,26248,Central Denmark Region,82,56.14616,9.05467,3731,,Europe__Copenhagen
DK,ADM2,Gladsaxe Municipality,143535,Capital Region of Denmark,84,55.76667,12.43333,65037,,Europe__Copenhagen
DK,CITY,Glamsbjerg,26816,Region of Southern Denmark,83,55.27237,10.10483,3099,55,Europe__Copenhagen
DK,CITY,Glostrup,26016,Capital Region of Denmark,84,55.6666,12.40377,20673,18,Europe__Copenhagen
DK,ADM2,Glostrup Kommune,143534,Capital Region of Denmark,84,55.68188,12.41018,21517,,Europe__Copenhagen
DK,CITY,Gram,26198,Region of Southern Denmark,83,55.28948,9.04913,2548,36,Europe__Copenhagen
DK,CITY,Grenaa,26620,Central Denmark Region,82,56.41578,10.87825,14317,5,Europe__Copenhagen
DK,CITY,Greve,26774,Region Zealand,85,55.58333,12.3,47671,,Europe__Copenhagen
DK,ADM2,Greve Kommune,143527,Region Zealand,85,55.5877,12.2506,47901,,Europe__Copenhagen
DK,ADM2,Gribskov Kommune,143561,Capital Region of Denmark,84,56.05833,12.24167,40672,,Europe__Copenhagen
DK,CITY,Grindsted,26424,Region of Southern Denmark,83,55.75726,8.9275,9414,41,Europe__Copenhagen
DK,CITY,Gråsten,25949,Region of Southern Denmark,83,54.91918,9.59523,4022,1,Europe__Copenhagen
DK,CITY,Græsted,26822,Capital Region of Denmark,84,56.06558,12.28512,3310,34,Europe__Copenhagen
DK,CITY,Guderup,26420,Region of Southern Denmark,83,54.98978,9.87174,2424,29,Europe__Copenhagen
DK,ADM2,Guldborgsund Kommune,143572,Region Zealand,85,54.76944,11.83611,62196,,Europe__Copenhagen
DK,CITY,Gundsømagle,26390,Region Zealand,85,55.73565,12.15158,2149,12,Europe__Copenhagen
DK,CITY,Gørlev,26147,Region Zealand,85,55.53926,11.22708,2269,6,Europe__Copenhagen
DK,CITY,Haderslev,26872,Region of Southern Denmark,83,55.24943,9.48771,20825,10,Europe__Copenhagen
DK,ADM2,Haderslev Kommune,143532,Region of Southern Denmark,83,55.24441,9.32261,56102,,Europe__Copenhagen
DK,CITY,Hadsten,26513,Central Denmark Region,82,56.32819,10.04931,7020,30,Europe__Copenhagen
DK,CITY,Hadsund,26114,North Denmark Region,81,56.71482,10.11682,5066,25,Europe__Copenhagen
DK,CITY,Hals,26579,North Denmark Region,81,56.99609,10.30807,2388,6,Europe__Copenhagen
DK,ADM2,Halsnæs Kommune,143555,Capital Region of Denmark,84,55.96765,11.94214,31155,,Europe__Copenhagen
DK,CITY,Hammel,26759,Central Denmark Region,82,56.25762,9.86316,6138,66,Europe__Copenhagen
DK,CITY,Hammerum,26673,Central Denmark Region,82,56.13361,9.06121,3025,,Europe__Copenhagen
DK,CITY,Hanstholm,26423,North Denmark Region,81,57.11548,8.6172,2418,38,Europe__Copenhagen
DK,CITY,Harboøre,26745,Central Denmark Region,82,56.61752,8.18069,1745,2,Europe__Copenhagen
DK,CITY,Haslev,26095,Region Zealand,85,55.32346,11.96389,10588,51,Europe__Copenhagen
DK,CITY,Havdrup,26033,Region Zealand,85,55.54481,12.12392,3828,,Europe__Copenhagen
DK,CITY,Hedensted,26304,Central Denmark Region,82,55.77043,9.7011,10048,,Europe__Copenhagen
DK,ADM2,Hedensted Kommune,143531,Central Denmark Region,82,55.7968,9.744,46130,,Europe__Copenhagen
DK,CITY,Hellebæk,26678,Capital Region of Denmark,84,56.06823,12.55782,5243,13,Europe__Copenhagen
DK,CITY,Helsinge,26542,Capital Region of Denmark,84,56.02283,12.19752,7354,31,Europe__Copenhagen
DK,CITY,Helsingør,25939,Capital Region of Denmark,84,56.03606,12.6136,35048,,Europe__Copenhagen
DK,ADM2,Helsingør Kommune,143529,Capital Region of Denmark,84,56.05,12.5,61358,,Europe__Copenhagen
DK,ADM2,Herlev Kommune,143530,Capital Region of Denmark,84,55.73317,12.43106,26532,,Europe__Copenhagen
DK,CITY,Herning,26453,Central Denmark Region,82,56.13615,8.97662,44763,58,Europe__Copenhagen
DK,ADM2,Herning Kommune,143528,Central Denmark Region,82,56.14997,8.89712,85925,,Europe__Copenhagen
DK,CITY,Hillerød,26925,Capital Region of Denmark,84,55.92791,12.30081,30853,41,Europe__Copenhagen
DK,ADM2,Hillerød Kommune,143533,Capital Region of Denmark,84,55.92319,12.23794,48121,,Europe__Copenhagen
DK,CITY,Hinnerup,26133,Central Denmark Region,82,56.26608,10.06299,7055,30,Europe__Copenhagen
DK,CITY,Hirtshals,26701,North Denmark Region,81,57.58812,9.95922,6653,90,Europe__Copenhagen
DK,CITY,Hjallerup,26868,North Denmark Region,81,57.16466,10.14571,3320,19,Europe__Copenhagen
DK,CITY,Hjortshøj,25101,Central Denmark Region,82,56.24811,10.26533,2515,50,Europe__Copenhagen
DK,CITY,Hjørring,26013,North Denmark Region,81,57.46417,9.98229,24634,50,Europe__Copenhagen
DK,ADM2,Hjørring Kommune,143520,North Denmark Region,81,57.45682,10.05859,66484,,Europe__Copenhagen
DK,CITY,Hobro,25515,North Denmark Region,81,56.64306,9.79029,11064,12,Europe__Copenhagen
DK,CITY,Holbæk,25865,Region Zealand,85,55.7175,11.71279,24544,11,Europe__Copenhagen
DK,ADM2,Holbæk Kommune,143526,Region Zealand,85,55.65919,11.62049,69500,,Europe__Copenhagen
DK,CITY,Holeby,25930,Region Zealand,85,54.71148,11.46416,1844,5,Europe__Copenhagen
DK,CITY,Holstebro,25019,Central Denmark Region,82,56.36009,8.61607,32072,14,Europe__Copenhagen
DK,ADM2,Holstebro Kommune,143525,Central Denmark Region,82,56.35916,8.59631,57281,,Europe__Copenhagen
DK,CITY,Holsted,25645,Region of Southern Denmark,83,55.51086,8.91872,3096,26,Europe__Copenhagen
DK,CITY,Hornbæk,25293,Capital Region of Denmark,84,56.09027,12.45693,3223,,Europe__Copenhagen
DK,CITY,Hornslet,25462,Central Denmark Region,82,56.3155,10.32041,4906,28,Europe__Copenhagen
DK,CITY,Hornsyld,25829,Central Denmark Region,82,55.75621,9.85643,1619,53,Europe__Copenhagen
DK,CITY,Horsens,25658,Central Denmark Region,82,55.86066,9.85034,58646,4,Europe__Copenhagen
DK,ADM2,Horsens Kommune,143521,Central Denmark Region,82,55.9274,9.77377,82896,,Europe__Copenhagen
DK,CITY,Humlebæk,25575,Capital Region of Denmark,84,55.9618,12.5341,8965,15,Europe__Copenhagen
DK,CITY,Hundested,25546,Capital Region of Denmark,84,55.96397,11.85044,8615,16,Europe__Copenhagen
DK,CITY,Hurup,24994,North Denmark Region,81,56.74944,8.41953,2769,43,Europe__Copenhagen
DK,CITY,Hvide Sande,25133,Central Denmark Region,82,55.99866,8.12605,3291,,Europe__Copenhagen
DK,CITY,Hvidovre,25108,Capital Region of Denmark,84,55.65719,12.47364,49380,9,Europe__Copenhagen
DK,ADM2,Hvidovre Kommune,143524,Capital Region of Denmark,84,55.63166,12.46615,50283,,Europe__Copenhagen
DK,CITY,Hårby,26871,Region of Southern Denmark,83,55.22357,10.12268,2400,,Europe__Copenhagen
DK,CITY,Hårlev,26417,Region Zealand,85,55.34936,12.23382,2423,13,Europe__Copenhagen
DK,CITY,Højby,25109,Region of Southern Denmark,83,55.33177,10.43725,4406,,Europe__Copenhagen
DK,ADM2,Høje-Taastrup Kommune,143564,Capital Region of Denmark,84,55.65643,12.24854,47897,,Europe__Copenhagen
DK,CITY,Høng,25830,Region Zealand,85,55.50736,11.28873,3789,26,Europe__Copenhagen
DK,CITY,Hørning,25527,Central Denmark Region,82,56.08701,10.03716,6085,68,Europe__Copenhagen
DK,CITY,Hørsholm,25638,Capital Region of Denmark,84,55.88098,12.50111,36670,29,Europe__Copenhagen
DK,ADM2,Hørsholm Kommune,143519,Capital Region of Denmark,84,55.88759,12.48566,24375,,Europe__Copenhagen
DK,CITY,Høruphav,25744,Region of Southern Denmark,83,54.91017,9.89872,2514,,Europe__Copenhagen
DK,CITY,Hørve,25055,Region Zealand,85,55.75292,11.45298,2382,,Europe__Copenhagen
DK,CITY,Ikast,25187,Central Denmark Region,82,56.13883,9.15768,14692,81,Europe__Copenhagen
DK,ADM2,Ikast-Brande Kommune,143557,Central Denmark Region,82,55.98333,9.21667,40650,,Europe__Copenhagen
DK,CITY,Ishøj,25560,Capital Region of Denmark,84,55.61543,12.35182,19453,4,Europe__Copenhagen
DK,ADM2,Ishøj Kommune,143522,Capital Region of Denmark,84,55.62299,12.30567,21019,,Europe__Copenhagen
DK,ADM2,Jammerbugt Kommune,143562,North Denmark Region,81,57.14583,9.5625,38741,,Europe__Copenhagen
DK,CITY,Jelling,25112,Region of Southern Denmark,83,55.75588,9.4258,3059,105,Europe__Copenhagen
DK,CITY,Juelsminde,24962,Central Denmark Region,82,55.70876,10.01668,3667,,Europe__Copenhagen
DK,CITY,Jyderup,25475,Region Zealand,85,55.66399,11.42029,3984,28,Europe__Copenhagen
DK,CITY,Jyllinge,25725,Region Zealand,85,55.75295,12.10315,9981,24,Europe__Copenhagen
DK,CITY,Jægerspris,25181,Capital Region of Denmark,84,55.85248,11.98565,3805,13,Europe__Copenhagen
DK,CITY,Kalundborg,25900,Region Zealand,85,55.67954,11.08864,15939,3,Europe__Copenhagen
DK,ADM2,Kalundborg Kommune,143523,Region Zealand,85,55.63545,11.19993,49015,,Europe__Copenhagen
DK,CITY,Karup,25466,Central Denmark Region,82,56.30673,9.16835,2176,39,Europe__Copenhagen
DK,CITY,Kerteminde,25171,Region of Southern Denmark,83,55.44903,10.65769,5748,5,Europe__Copenhagen
DK,ADM2,Kerteminde Kommune,143517,Region of Southern Denmark,83,55.45498,10.6222,23777,,Europe__Copenhagen
DK,CITY,Kibæk,25146,Central Denmark Region,82,56.0317,8.85697,2656,40,Europe__Copenhagen
DK,CITY,Kirke Hvalsø,24934,Region Zealand,85,55.5917,11.86253,4086,56,Europe__Copenhagen
DK,CITY,Kjellerup,25824,Central Denmark Region,82,56.28581,9.43528,4514,63,Europe__Copenhagen
DK,CITY,Klarup,25359,North Denmark Region,81,57.01194,10.05617,3352,16,Europe__Copenhagen
DK,CITY,Kokkedal,25355,Capital Region of Denmark,84,55.91179,12.49952,9585,,Europe__Copenhagen
DK,CITY,Kolding,25579,Region of Southern Denmark,83,55.4904,9.47216,55363,50,Europe__Copenhagen
DK,ADM2,Kolding Kommune,143515,Region of Southern Denmark,83,55.45006,9.45807,89223,,Europe__Copenhagen
DK,CITY,Kolt,25307,Central Denmark Region,82,56.10845,10.06986,5061,75,Europe__Copenhagen
DK,CITY,Kongens Lyngby,24942,Capital Region of Denmark,84,55.77044,12.50378,10600,51,Europe__Copenhagen
DK,CITY,Korsør,24957,Region Zealand,85,55.32993,11.13857,15029,2,Europe__Copenhagen
DK,CITY,Kruså,25704,Region of Southern Denmark,83,54.85097,9.40129,1694,36,Europe__Copenhagen
DK,CITY,Kås,25201,North Denmark Region,81,57.19774,9.67173,1990,12,Europe__Copenhagen
DK,ADM2,København,143516,Capital Region of Denmark,84,55.6711,12.56529,541011,,Europe__Copenhagen
DK,CITY,Køge,25497,Region Zealand,85,55.45802,12.18214,33885,3,Europe__Copenhagen
DK,ADM2,Køge Kommune,143518,Region Zealand,85,55.45668,12.07332,57266,,Europe__Copenhagen
DK,ADM2,Langeland Kommune,143569,Region of Southern Denmark,83,54.9,10.77222,13205,,Europe__Copenhagen
DK,CITY,Langeskov,24963,Region of Southern Denmark,83,55.35655,10.58447,3713,,Europe__Copenhagen
DK,CITY,Langå,24939,Central Denmark Region,82,56.39026,9.89486,2710,16,Europe__Copenhagen
DK,CITY,Lejre,25231,Region Zealand,85,55.60461,11.97477,2036,17,Europe__Copenhagen
DK,ADM2,Lejre Kommune,143510,Region Zealand,85,55.63375,11.92234,26826,,Europe__Copenhagen
DK,CITY,Lemvig,25090,Central Denmark Region,82,56.54856,8.31019,7330,,Europe__Copenhagen
DK,ADM2,Lemvig Kommune,143513,Central Denmark Region,82,56.49136,8.29927,21560,,Europe__Copenhagen
DK,CITY,Lillerød,25755,Capital Region of Denmark,84,55.87496,12.34579,15359,45,Europe__Copenhagen
DK,CITY,Lind,25235,Central Denmark Region,82,56.106,8.97915,3777,65,Europe__Copenhagen
DK,CITY,Liseleje,25787,Capital Region of Denmark,84,56.01295,11.96544,2906,15,Europe__Copenhagen
DK,ADM2,Lolland Kommune,143570,Region Zealand,85,54.80238,11.29524,45861,,Europe__Copenhagen
DK,CITY,Lunderskov,25712,Region of Southern Denmark,83,55.48375,9.29917,2687,38,Europe__Copenhagen
DK,ADM2,Lyngby-Tårbæk Kommune,143509,Capital Region of Denmark,84,55.78456,12.50508,52732,,Europe__Copenhagen
DK,CITY,Lynge,25249,Capital Region of Denmark,84,55.83941,12.27725,4284,56,Europe__Copenhagen
DK,CITY,Lystrup,25496,Central Denmark Region,82,56.2375,10.23778,9107,48,Europe__Copenhagen
DK,ADM2,Læso Kommune,143512,North Denmark Region,81,57.26774,11.02265,1948,,Europe__Copenhagen
DK,CITY,Løgstør,25017,North Denmark Region,81,56.96245,9.2583,4469,21,Europe__Copenhagen
DK,CITY,Løgten,25795,Central Denmark Region,82,56.27459,10.31181,5048,69,Europe__Copenhagen
DK,CITY,Løgumkloster,25586,Region of Southern Denmark,83,55.05941,8.95508,3056,16,Europe__Copenhagen
DK,CITY,Løjt Kirkeby,24938,Region of Southern Denmark,83,55.08959,9.46084,1975,65,Europe__Copenhagen
DK,CITY,Løkken,25134,North Denmark Region,81,57.37047,9.71466,8828,,Europe__Copenhagen
DK,CITY,Malling,25809,Central Denmark Region,82,56.03632,10.19632,3339,57,Europe__Copenhagen
DK,CITY,Mariager,25461,North Denmark Region,81,56.64985,9.97515,2433,25,Europe__Copenhagen
DK,ADM2,Mariagerfjord Kommune,143560,North Denmark Region,81,56.69722,9.84722,42574,,Europe__Copenhagen
DK,CITY,Maribo,25540,Region Zealand,85,54.77662,11.50017,5349,13,Europe__Copenhagen
DK,CITY,Marstal,25073,Region of Southern Denmark,83,54.85621,10.51726,2265,11,Europe__Copenhagen
DK,CITY,Middelfart,25691,Region of Southern Denmark,83,55.50591,9.73054,13596,4,Europe__Copenhagen
DK,ADM2,Middelfart Kommune,143514,Region of Southern Denmark,83,55.45782,9.881,37669,,Europe__Copenhagen
DK,ADM2,Morsø Kommune,143511,North Denmark Region,81,56.79622,8.73272,21562,,Europe__Copenhagen
DK,CITY,Munkebo,25672,Region of Southern Denmark,83,55.45553,10.55433,5225,16,Europe__Copenhagen
DK,CITY,Måløv,25219,Capital Region of Denmark,84,55.75528,12.32327,8513,,Europe__Copenhagen
DK,CITY,Mårslet,25779,Central Denmark Region,82,56.0669,10.16112,2698,,Europe__Copenhagen
DK,CITY,Nakskov,25529,Region Zealand,85,54.83038,11.13567,14081,,Europe__Copenhagen
DK,CITY,Neder Holluf,25068,Region of Southern Denmark,83,55.36451,10.44824,5612,,Europe__Copenhagen
DK,CITY,Neder Vindinge,25076,Region Zealand,85,55.03211,11.88356,1900,,Europe__Copenhagen
DK,CITY,Nexø,25921,Capital Region of Denmark,84,55.06067,15.13058,3841,4,Europe__Copenhagen
DK,CITY,Nibe,25773,North Denmark Region,81,56.9815,9.63917,4376,10,Europe__Copenhagen
DK,CITY,Nivå,25041,Capital Region of Denmark,84,55.93405,12.50485,8035,8,Europe__Copenhagen
DK,CITY,Nordborg,25178,Region of Southern Denmark,83,55.05732,9.7408,7406,,Europe__Copenhagen
DK,CITY,Nordby,25398,Region of Southern Denmark,83,55.44603,8.39786,2512,,Europe__Copenhagen
DK,ADM2,Norddjurs Kommune,143580,Central Denmark Region,82,56.44124,10.7666,37929,,Europe__Copenhagen
DK,ADM2,Nordfyns Kommune,143563,Region of Southern Denmark,83,55.52222,10.22222,29509,,Europe__Copenhagen
DK,CITY,Nyborg,25246,Region of Southern Denmark,83,55.31274,10.78964,15826,7,Europe__Copenhagen
DK,ADM2,Nyborg Kommune,143505,Region of Southern Denmark,83,55.29473,10.7031,31532,,Europe__Copenhagen
DK,CITY,Nykøbing Falster,25822,Region Zealand,85,54.76906,11.87425,16807,2,Europe__Copenhagen
DK,CITY,Nykøbing Mors,25432,North Denmark Region,81,56.79334,8.85282,9326,5,Europe__Copenhagen
DK,CITY,Nykøbing Sjælland,25324,Region Zealand,85,55.92491,11.67109,5596,15,Europe__Copenhagen
DK,CITY,Nyråd,25213,Region Zealand,85,55.00511,11.9606,2224,39,Europe__Copenhagen
DK,CITY,Næstved,25552,Region Zealand,85,55.22992,11.76092,40660,16,Europe__Copenhagen
DK,ADM2,Næstved Kommune,143508,Region Zealand,85,55.25855,11.74615,80940,,Europe__Copenhagen
DK,CITY,Nødebo,25657,Capital Region of Denmark,84,55.97877,12.34685,1875,26,Europe__Copenhagen
DK,CITY,Nørre Alslev,24968,Region Zealand,85,54.89784,11.88414,2128,,Europe__Copenhagen
DK,CITY,Nørre Åby,25521,Region of Southern Denmark,83,55.46107,9.8794,2678,23,Europe__Copenhagen
DK,CITY,Nørresundby,25623,North Denmark Region,81,57.05877,9.92284,22083,8,Europe__Copenhagen
DK,CITY,Odder,25925,Central Denmark Region,82,55.97313,10.153,11009,11,Europe__Copenhagen
DK,ADM2,Odder Kommune,143507,Central Denmark Region,82,55.92967,10.15304,21752,,Europe__Copenhagen
DK,CITY,Odense,25208,Region of Southern Denmark,83,55.39594,10.38831,145931,13,Europe__Copenhagen
DK,ADM2,Odense Kommune,143506,Region of Southern Denmark,83,55.3957,10.37761,190050,,Europe__Copenhagen
DK,ADM2,Odsherred Kommune,143568,Region Zealand,85,55.88333,11.59444,32829,,Europe__Copenhagen
DK,CITY,Oksbøl,25193,Region of Southern Denmark,83,55.6268,8.28757,2845,16,Europe__Copenhagen
DK,CITY,Osted,25614,Region Zealand,85,55.56228,11.95786,2122,42,Europe__Copenhagen
DK,CITY,Otterup,25121,Region of Southern Denmark,83,55.51527,10.39756,4522,9,Europe__Copenhagen
DK,CITY,Padborg,25811,Region of Southern Denmark,83,54.82657,9.36247,4684,47,Europe__Copenhagen
DK,CITY,Pandrup,25607,North Denmark Region,81,57.22147,9.67569,2942,10,Europe__Copenhagen
DK,CITY,Præstø,25634,Region Zealand,85,55.12374,12.04477,3695,12,Europe__Copenhagen
DK,CITY,Randers,25265,Central Denmark Region,82,56.4607,10.03639,55780,56,Europe__Copenhagen
DK,ADM2,Randers Kommune,143501,Central Denmark Region,82,56.51561,10.06901,95529,,Europe__Copenhagen
DK,ADM2,Rebild Kommune,143576,North Denmark Region,81,56.80556,9.77778,28988,,Europe__Copenhagen
DK,CITY,Ribe,25782,Region of Southern Denmark,83,55.33051,8.76966,7983,5,Europe__Copenhagen
DK,CITY,Ringe,25456,Region of Southern Denmark,83,55.23828,10.4786,4849,75,Europe__Copenhagen
DK,CITY,Ringkøbing,25871,Central Denmark Region,82,56.09006,8.24402,9315,8,Europe__Copenhagen
DK,ADM2,Ringkøbing-Skjern Kommune,143579,Central Denmark Region,82,56.01,8.39667,58176,,Europe__Copenhagen
DK,CITY,Ringsted,25915,Region Zealand,85,55.4426,11.79011,20188,54,Europe__Copenhagen
DK,ADM2,Ringsted Kommune,143502,Region Zealand,85,55.44721,11.8172,32991,,Europe__Copenhagen
DK,CITY,Roskilde,25035,Region Zealand,85,55.64152,12.08035,44285,41,Europe__Copenhagen
DK,ADM2,Roskilde Kommune,143504,Region Zealand,85,55.65,12.1,82673,,Europe__Copenhagen
DK,ADM2,Rudersdal Kommune,143559,Capital Region of Denmark,84,55.825,12.49167,54499,,Europe__Copenhagen
DK,CITY,Rudkøbing,25756,Region of Southern Denmark,83,54.93639,10.71019,4666,10,Europe__Copenhagen
DK,CITY,Ry,25777,Central Denmark Region,82,56.09038,9.76505,4909,38,Europe__Copenhagen
DK,CITY,Ryomgård,25066,Central Denmark Region,82,56.3843,10.50295,1952,29,Europe__Copenhagen
DK,CITY,Rødby,25243,Region Zealand,85,54.69495,11.38885,2379,,Europe__Copenhagen
DK,CITY,Rødbyhavn,25018,Region Zealand,85,54.65944,11.35504,2145,,Europe__Copenhagen
DK,CITY,Rødding,25276,Region of Southern Denmark,83,55.36569,9.06316,2769,35,Europe__Copenhagen
DK,CITY,Rødekro,25228,Region of Southern Denmark,83,55.07076,9.33531,5452,,Europe__Copenhagen
DK,CITY,Rødovre,25891,Capital Region of Denmark,84,55.68062,12.45373,30000,20,Europe__Copenhagen
DK,ADM2,Rødovre Kommune,143503,Capital Region of Denmark,84,55.68852,12.44834,36610,,Europe__Copenhagen
DK,CITY,Rødvig,25160,Region Zealand,85,55.2554,12.37936,1783,,Europe__Copenhagen
DK,CITY,Rønde,25168,Central Denmark Region,82,56.30145,10.47505,2213,46,Europe__Copenhagen
DK,CITY,Rønne,25928,Capital Region of Denmark,84,55.10091,14.70664,13890,15,Europe__Copenhagen
DK,CITY,Rønnede,25025,Region Zealand,85,55.2571,12.02125,2395,66,Europe__Copenhagen
DK,CITY,Sabro,25463,Central Denmark Region,82,56.21333,10.03441,1977,95,Europe__Copenhagen
DK,CITY,Sakskøbing,25662,Region Zealand,85,54.7997,11.62599,4928,,Europe__Copenhagen
DK,ADM2,Samsø Kommune,143497,Central Denmark Region,82,55.85245,10.60045,3904,,Europe__Copenhagen
DK,CITY,Seden,25808,Region of Southern Denmark,83,55.42648,10.44265,3350,,Europe__Copenhagen
DK,CITY,Silkeborg,25467,Central Denmark Region,82,56.1697,9.54508,41674,31,Europe__Copenhagen
DK,ADM2,Silkeborg Kommune,143496,Central Denmark Region,82,56.17495,9.54666,89244,,Europe__Copenhagen
DK,CITY,Sindal,25223,North Denmark Region,81,57.47117,10.20312,2898,25,Europe__Copenhagen
DK,CITY,Skaerbaek,25841,Region of Southern Denmark,83,55.15735,8.76901,3174,16,Europe__Copenhagen
DK,CITY,Skagen,25280,North Denmark Region,81,57.72093,10.58394,9747,3,Europe__Copenhagen
DK,CITY,Skanderborg,25742,Central Denmark Region,82,56.03434,9.93177,13543,36,Europe__Copenhagen
DK,ADM2,Skanderborg Kommune,143498,Central Denmark Region,82,56.07956,9.89868,57966,,Europe__Copenhagen
DK,CITY,Skibby,25486,Capital Region of Denmark,84,55.75122,11.96083,2661,31,Europe__Copenhagen
DK,CITY,Skive,25253,Central Denmark Region,82,56.56699,9.02707,20815,1,Europe__Copenhagen
DK,ADM2,Skive Kommune,143500,Central Denmark Region,82,56.64478,8.9766,47938,,Europe__Copenhagen
DK,CITY,Skjern,24979,Central Denmark Region,82,55.95,8.5,7145,9,Europe__Copenhagen
DK,CITY,Skovby,25047,Central Denmark Region,82,56.15672,9.94523,2489,,Europe__Copenhagen
DK,CITY,Skælskør,25384,Region Zealand,85,55.25058,11.29352,6455,4,Europe__Copenhagen
DK,CITY,Skævinge,25582,Capital Region of Denmark,84,55.90785,12.15036,2555,,Europe__Copenhagen
DK,CITY,Skørping,25277,North Denmark Region,81,56.83626,9.89255,2722,66,Europe__Copenhagen
DK,CITY,Slagelse,25281,Region Zealand,85,55.40276,11.35459,31896,51,Europe__Copenhagen
DK,ADM2,Slagelse Kommune,143495,Region Zealand,85,55.34546,11.3339,77459,,Europe__Copenhagen
DK,CITY,Slangerup,25092,Capital Region of Denmark,84,55.85,12.18333,6829,29,Europe__Copenhagen
DK,CITY,Smørumnedre,25769,Capital Region of Denmark,84,55.74232,12.30276,9507,31,Europe__Copenhagen
DK,CITY,Snejbjerg,25836,Central Denmark Region,82,56.13291,8.90353,3513,64,Europe__Copenhagen
DK,CITY,Snoghøj,25206,Region of Southern Denmark,83,55.52253,9.72125,2371,17,Europe__Copenhagen
DK,CITY,Solbjerg,25240,Central Denmark Region,82,56.04271,10.08631,2964,59,Europe__Copenhagen
DK,CITY,Solrød,25584,Region Zealand,85,55.53628,12.1827,2000,,Europe__Copenhagen
DK,ADM2,Solrød Kommune,143499,Region Zealand,85,55.53553,12.17337,21072,,Europe__Copenhagen
DK,CITY,Solrød Strand,25239,Region Zealand,85,55.53285,12.22227,14845,,Europe__Copenhagen
DK,CITY,Sorø,25113,Region Zealand,85,55.43184,11.55547,7167,43,Europe__Copenhagen
DK,ADM2,Sorø Kommune,143491,Region Zealand,85,55.48268,11.55693,29466,,Europe__Copenhagen
DK,CITY,Spentrup,25632,Central Denmark Region,82,56.53703,10.03792,2155,45,Europe__Copenhagen
DK,CITY,Starup,24996,Region of Southern Denmark,83,55.24097,9.53503,2091,21,Europe__Copenhagen
DK,CITY,Stavnsholt,25422,Capital Region of Denmark,84,55.81479,12.40545,5658,35,Europe__Copenhagen
DK,CITY,Stavtrup,25396,Central Denmark Region,82,56.13124,10.11987,3519,35,Europe__Copenhagen
DK,CITY,Stege,25483,Region Zealand,85,54.98704,12.28461,3881,0,Europe__Copenhagen
DK,CITY,Stenlille,25545,Region Zealand,85,55.53888,11.5912,1905,35,Europe__Copenhagen
DK,CITY,Stenløse,25845,Capital Region of Denmark,84,55.76828,12.19723,19998,14,Europe__Copenhagen
DK,ADM2,Stevns Kommune,143493,Region Zealand,85,55.33373,12.30692,21904,,Europe__Copenhagen
DK,CITY,Stige,25600,Region of Southern Denmark,83,55.43941,10.4094,2182,,Europe__Copenhagen
DK,CITY,Stilling,25333,Central Denmark Region,82,56.06224,9.98822,3655,,Europe__Copenhagen
DK,CITY,Stoholm,25719,Central Denmark Region,82,56.48454,9.14617,2202,23,Europe__Copenhagen
DK,CITY,Store Heddinge,25580,Region Zealand,85,55.30965,12.38885,3679,30,Europe__Copenhagen
DK,CITY,Storvorde,25248,North Denmark Region,81,57.00392,10.10125,2796,8,Europe__Copenhagen
DK,CITY,Strandby,25064,North Denmark Region,81,57.4915,10.49609,2518,,Europe__Copenhagen
DK,CITY,Strib,25400,Region of Southern Denmark,83,55.54021,9.76748,4339,13,Europe__Copenhagen
DK,CITY,Struer,25149,Central Denmark Region,82,56.49205,8.59397,11317,12,Europe__Copenhagen
DK,ADM2,Struer Kommune,143494,Central Denmark Region,82,56.46667,8.58333,22229,,Europe__Copenhagen
DK,CITY,Strøby Egede,24965,Region Zealand,85,55.41382,12.24502,2700,5,Europe__Copenhagen
DK,CITY,Stubbekøbing,25378,Region Zealand,85,54.88875,12.04102,2301,,Europe__Copenhagen
DK,CITY,Støvring,25785,North Denmark Region,81,56.88536,9.83839,6239,18,Europe__Copenhagen
DK,CITY,Sundby,26066,Region Zealand,85,54.76711,11.84979,2843,12,Europe__Copenhagen
DK,CITY,Sunds,24990,Central Denmark Region,82,56.20743,9.01386,3525,45,Europe__Copenhagen
DK,CITY,Svebølle,25746,Region Zealand,85,55.65183,11.28658,2186,14,Europe__Copenhagen
DK,CITY,Svejbæk,25924,Central Denmark Region,82,56.13255,9.63289,3743,,Europe__Copenhagen
DK,CITY,Svendborg,25419,Region of Southern Denmark,83,55.05982,10.60677,27553,14,Europe__Copenhagen
DK,ADM2,Svendborg Kommune,143489,Region of Southern Denmark,83,55.0841,10.61391,58708,,Europe__Copenhagen
DK,CITY,Svenstrup,25703,North Denmark Region,81,56.9723,9.84806,4550,,Europe__Copenhagen
DK,CITY,Svinninge,24993,Region Zealand,85,55.72111,11.46547,2376,9,Europe__Copenhagen
DK,CITY,Svogerslev,25470,Region Zealand,85,55.63423,12.01465,4355,39,Europe__Copenhagen
DK,ADM2,Syddjurs Kommune,143577,Central Denmark Region,82,56.3125,10.52083,41748,,Europe__Copenhagen
DK,CITY,Sæby,25720,North Denmark Region,81,57.33188,10.52251,8435,,Europe__Copenhagen
DK,CITY,Søften,24971,Central Denmark Region,82,56.23801,10.0851,2030,41,Europe__Copenhagen
DK,CITY,Sønder Bjert,25678,Region of Southern Denmark,83,55.45272,9.56741,1815,24,Europe__Copenhagen
DK,CITY,Sønderborg,25731,Region of Southern Denmark,83,54.90896,9.78917,27033,,Europe__Copenhagen
DK,ADM2,Sønderborg Kommune,143492,Region of Southern Denmark,83,54.91667,9.8,76280,,Europe__Copenhagen
DK,CITY,Søndersø,25640,Region of Southern Denmark,83,55.48526,10.2554,2850,30,Europe__Copenhagen
DK,CITY,Taastrup,25792,Capital Region of Denmark,84,55.65006,12.3016,30977,28,Europe__Copenhagen
DK,CITY,Tarm,25730,Central Denmark Region,82,55.90861,8.53041,4080,8,Europe__Copenhagen
DK,CITY,Taulov,25827,Region of Southern Denmark,83,55.54582,9.61553,2898,30,Europe__Copenhagen
DK,CITY,Thisted,25688,North Denmark Region,81,56.95523,8.69491,13020,4,Europe__Copenhagen
DK,ADM2,Thisted Kommune,143487,North Denmark Region,81,57.00397,8.61834,45118,,Europe__Copenhagen
DK,CITY,Thurø By,25238,Region of Southern Denmark,83,55.0474,10.66385,3350,21,Europe__Copenhagen
DK,CITY,Thyborøn,25096,Central Denmark Region,82,56.69846,8.21238,2587,2,Europe__Copenhagen
DK,CITY,Tinglev,24964,Region of Southern Denmark,83,54.93788,9.25547,2829,,Europe__Copenhagen
DK,CITY,Tjæreborg,25626,Region of Southern Denmark,83,55.46457,8.57968,2146,12,Europe__Copenhagen
DK,CITY,Toftlund,25536,Region of Southern Denmark,83,55.18858,9.06925,3438,44,Europe__Copenhagen
DK,CITY,Tommerup,24933,Region of Southern Denmark,83,55.31952,10.20659,2072,52,Europe__Copenhagen
DK,CITY,Tommerup Stationsby,25876,Region of Southern Denmark,83,55.34535,10.17594,2401,59,Europe__Copenhagen
DK,CITY,Tranbjerg,25810,Central Denmark Region,82,56.09519,10.13605,7307,,Europe__Copenhagen
DK,CITY,Trige,24943,Central Denmark Region,82,56.25291,10.1484,2475,76,Europe__Copenhagen
DK,CITY,Trørød,25562,Capital Region of Denmark,84,55.83946,12.54432,8576,21,Europe__Copenhagen
DK,CITY,Tune,25473,Region Zealand,85,55.59287,12.16968,5168,40,Europe__Copenhagen
DK,CITY,Tårnby,25663,Capital Region of Denmark,84,55.6303,12.60035,10000,2,Europe__Copenhagen
DK,ADM2,Tårnby Kommune,143488,Capital Region of Denmark,84,55.60391,12.59599,41022,,Europe__Copenhagen
DK,CITY,Tårs,25221,North Denmark Region,81,57.38333,10.11667,1856,,Europe__Copenhagen
DK,CITY,Tølløse,25020,Region Zealand,85,55.6125,11.77034,3457,47,Europe__Copenhagen
DK,CITY,Tønder,25549,Region of Southern Denmark,83,54.93306,8.86674,7841,3,Europe__Copenhagen
DK,ADM2,Tønder Kommune,143490,Region of Southern Denmark,83,55.07304,8.87214,39403,,Europe__Copenhagen
DK,CITY,Tørring,25071,Central Denmark Region,82,55.85,9.48333,2370,58,Europe__Copenhagen
DK,CITY,Ulfborg,25707,Central Denmark Region,82,56.26725,8.32167,1994,18,Europe__Copenhagen
DK,CITY,Ullerslev,25572,Region of Southern Denmark,83,55.36172,10.6519,2962,14,Europe__Copenhagen
DK,CITY,Ulstrup,25544,Central Denmark Region,82,56.38994,9.79354,1963,12,Europe__Copenhagen
DK,CITY,Vadum,25901,North Denmark Region,81,57.1179,9.857,1978,10,Europe__Copenhagen
DK,CITY,Vallensbæk,25732,Capital Region of Denmark,84,55.62199,12.38511,13500,,Europe__Copenhagen
DK,ADM2,Vallensbæk Kommune,143480,Capital Region of Denmark,84,55.63128,12.37369,14512,,Europe__Copenhagen
DK,CITY,Vamdrup,24997,Region of Southern Denmark,83,55.42764,9.28435,4685,37,Europe__Copenhagen
DK,CITY,Vanløse,25820,Capital Region of Denmark,84,55.68361,12.48713,37115,,Europe__Copenhagen
DK,CITY,Varde,25143,Region of Southern Denmark,83,55.62112,8.48069,12735,11,Europe__Copenhagen
DK,ADM2,Varde Kommune,143541,Region of Southern Denmark,83,55.61667,8.5,50411,,Europe__Copenhagen
DK,CITY,Vejen,25347,Region of Southern Denmark,83,55.48117,9.13795,8525,41,Europe__Copenhagen
DK,ADM2,Vejen Kommune,143484,Region of Southern Denmark,83,55.46312,9.05004,42798,,Europe__Copenhagen
DK,CITY,Vejle,25661,Region of Southern Denmark,83,55.70927,9.5357,51177,8,Europe__Copenhagen
DK,ADM2,Vejle Kommune,143483,Region of Southern Denmark,83,55.74874,9.40421,107567,,Europe__Copenhagen
DK,CITY,Veksø,25484,Capital Region of Denmark,84,55.75473,12.23837,1921,31,Europe__Copenhagen
DK,CITY,Vestbjerg,25142,North Denmark Region,81,57.13166,9.95942,2251,24,Europe__Copenhagen
DK,CITY,Vester Hassing,25124,North Denmark Region,81,57.06767,10.12558,2298,16,Europe__Copenhagen
DK,CITY,Vester-Skerninge,25880,Region of Southern Denmark,83,55.07322,10.45536,1315,,Europe__Copenhagen
DK,ADM2,Vesthimmerland Kommune,143578,North Denmark Region,81,56.8,9.37083,37748,,Europe__Copenhagen
DK,CITY,Viborg,25519,Central Denmark Region,82,56.45319,9.40201,34831,51,Europe__Copenhagen
DK,ADM2,Viborg Kommune,143486,Central Denmark Region,82,56.45,9.36667,93703,,Europe__Copenhagen
DK,CITY,Viby,25621,Region Zealand,85,55.54872,12.02391,4505,41,Europe__Copenhagen
DK,CITY,Videbæk,25155,Central Denmark Region,82,56.0876,8.62852,4052,36,Europe__Copenhagen
DK,CITY,Vildbjerg,25152,Central Denmark Region,82,56.2,8.76667,3773,54,Europe__Copenhagen
DK,CITY,Vindeby,24959,Region of Southern Denmark,83,55.04489,10.61309,2144,15,Europe__Copenhagen
DK,CITY,Vinderup,25345,Central Denmark Region,82,56.48176,8.77991,2991,13,Europe__Copenhagen
DK,CITY,Vindinge,25105,Region Zealand,85,55.62298,12.1387,2045,54,Europe__Copenhagen
DK,CITY,Vipperød,25733,Region Zealand,85,55.66768,11.73967,2345,32,Europe__Copenhagen
DK,CITY,Virklund,25140,Central Denmark Region,82,56.13218,9.55582,3113,54,Europe__Copenhagen
DK,CITY,Vissenbjerg,25383,Region of Southern Denmark,83,55.38482,10.13784,3055,,Europe__Copenhagen
DK,CITY,Vodskov,25254,North Denmark Region,81,57.10854,10.02215,4406,13,Europe__Copenhagen
DK,CITY,Vojens,25692,Region of Southern Denmark,83,55.24639,9.30603,8019,42,Europe__Copenhagen
DK,CITY,Vordingborg,25062,Region Zealand,85,55.00801,11.91057,12014,15,Europe__Copenhagen
DK,ADM2,Vordingborg Kommune,143481,Region Zealand,85,55.01383,12.10008,46055,,Europe__Copenhagen
DK,CITY,Vrå,25860,North Denmark Region,81,57.3537,9.94176,2273,29,Europe__Copenhagen
DK,CITY,Værløse,25698,Capital Region of Denmark,84,55.78251,12.36856,13024,47,Europe__Copenhagen
DK,CITY,Åbybro,26847,North Denmark Region,81,57.16249,9.72996,4849,,Europe__Copenhagen
DK,CITY,Åkirkeby,26458,Capital Region of Denmark,84,55.0708,14.91978,2195,,Europe__Copenhagen
DK,ADM2,Ålborg Kommune,143567,North Denmark Region,81,57.0,9.95,199226,,Europe__Copenhagen
DK,CITY,Ålestrup,26235,North Denmark Region,81,56.6947,9.49336,2787,,Europe__Copenhagen
DK,CITY,Århus,26044,Central Denmark Region,82,56.15674,10.21076,237551,105,Europe__Copenhagen
DK,ADM2,Århus Kommune,143551,Central Denmark Region,82,56.16317,10.16897,310653,,Europe__Copenhagen
DK,CITY,Årslev,25953,Region of Southern Denmark,83,55.30353,10.46428,3228,,Europe__Copenhagen
DK,CITY,Årup,26136,Region of Southern Denmark,83,55.37315,10.04131,2592,,Europe__Copenhagen
DK,ADM2,Ærø Kommune,143574,Region of Southern Denmark,83,54.85833,10.43333,6626,,Europe__Copenhagen
DK,CITY,Ærøskøbing,26834,Region of Southern Denmark,83,54.88803,10.41117,951,,Europe__Copenhagen
DK,CITY,Ølgod,25325,Region of Southern Denmark,83,55.80682,8.62859,3891,,Europe__Copenhagen
DK,CITY,Ølstykke,25157,Capital Region of Denmark,84,55.79567,12.15509,5348,,Europe__Copenhagen
DK,CITY,Ørslev,25862,Region Zealand,85,55.04356,11.96792,1801,,Europe__Copenhagen
